[
  {
    "id": 1,
    "name": "O Viño da Terra",
    "description": "Bodega con selección de vinos gallegos de la Ribeira Sacra. Cata de Mencía y Godello. Ambiente rústico con vistas al río.",
    "latitude": 42.2919,
    "longitude": -7.4970,
    "region": "Ribeira Sacra",
    "rating": 4.8,
    "reviews": 127,
    "phone": "+34 988 12 3456",
    "horario": "11:00 - 23:00",
    "especialidad": "Vinos Mencía y Godello"
  },
  {
    "id": 2,
    "name": "Taberna A Vilela",
    "description": "Bar tradicional gallego con vinos de Rioxa y Galicia. Pulpo a la gallega, empanada casera y excelente selección de vinos.",
    "latitude": 42.6000,
    "longitude": -8.3960,
    "region": "A Coruña",
    "rating": 4.6,
    "reviews": 89,
    "phone": "+34 981 22 4567",
    "horario": "13:00 - 23:00",
    "especialidad": "Vinos tintos Gallegos"
  },
  {
    "id": 3,
    "name": "Adega O Buraco",
    "description": "Pequeña bodega en el corazón de Ourense. Vinos locales de la Denominación de Origen. Ambiente íntimo y acogedor.",
    "latitude": 42.3391,
    "longitude": -7.8644,
    "region": "Ourense",
    "rating": 4.7,
    "reviews": 104,
    "phone": "+34 988 37 5678",
    "horario": "17:00 - 23:30",
    "especialidad": "Vinos Blancos Albariño"
  },
  {
    "id": 4,
    "name": "Casa do Viño Santiago",
    "description": "Vinoteca en Santiago de Compostela especializada en vinos de pequeños productores gallegos y del Douro.",
    "latitude": 42.8805,
    "longitude": -8.5447,
    "region": "Santiago",
    "rating": 4.5,
    "reviews": 78,
    "phone": "+34 981 58 9012",
    "horario": "12:00 - 23:00",
    "especialidad": "Vinos Premium"
  },
  {
    "id": 5,
    "name": "O Vaso de Vino",
    "description": "Bar-bodega en Vigo con una de las mejores colecciones de albariños de Rías Baixas. Tapas marineras incluidas.",
    "latitude": 42.2298,
    "longitude": -8.7207,
    "region": "Vigo",
    "rating": 4.9,
    "reviews": 156,
    "phone": "+34 986 43 2345",
    "horario": "12:30 - 00:00",
    "especialidad": "Albariño Premium"
  },
  {
    "id": 6,
    "name": "Taberna da Sidra",
    "description": "Combinación de vinos y sidra artesana asturiana. Quesos gallegos y jamón ibérico. Música en directo los viernes.",
    "latitude": 42.5420,
    "longitude": -8.4070,
    "region": "A Coruña",
    "rating": 4.4,
    "reviews": 92,
    "phone": "+34 981 45 6789",
    "horario": "18:00 - 23:30",
    "especialidad": "Sidra y Vinos"
  },
  {
    "id": 7,
    "name": "Adegaría Ponte de Lima",
    "description": "Bodega boutique con vino natural y biodinámico de pequeños productores. Degustación con quesos artesanales.",
    "latitude": 42.0561,
    "longitude": -8.7661,
    "region": "Pontevedra",
    "rating": 4.8,
    "reviews": 113,
    "phone": "+34 986 85 1234",
    "horario": "17:00 - 23:00",
    "especialidad": "Vino Natural"
  },
  {
    "id": 8,
    "name": "Casa Antiga do Viño",
    "description": "Bodega histórica en Lugo con más de 50 años. Vinos criados en barriles de roble. Maridaje con productos gallegos.",
    "latitude": 42.6618,
    "longitude": -8.6274,
    "region": "Lugo",
    "rating": 4.7,
    "reviews": 118,
    "phone": "+34 982 22 7890",
    "horario": "11:00 - 22:00",
    "especialidad": "Vinos Crianza"
  }
]
